City,Lat,Lng,Max Temp,Current Description,Humidity,Cloudiness,Wind Speed,Country,Date
Sikasso,10.9167,-7.0,75.0,broken clouds,83,77,4.27,ML,1626404393
Calipan,18.2958,-97.1667,65.95,broken clouds,90,64,4.07,MX,1626404395
Dikson,73.5069,80.5464,34.65,overcast clouds,96,100,13.15,RU,1626404396
Norwich,52.6278,1.2983,57.47,overcast clouds,89,90,4.61,GB,1626404235
Ushtobe,45.2514,77.9838,68.09,overcast clouds,63,100,16.08,KZ,1626404398
Half Moon Bay,37.4636,-122.4286,68.07,clear sky,82,1,11.5,US,1626404400
Dunedin,-45.8742,170.5036,48.79,light rain,83,87,10.0,NZ,1626404403
Kaitangata,-46.2817,169.8464,52.93,few clouds,78,18,2.57,NZ,1626404405
Qui Nhon,13.7667,109.2333,83.14,overcast clouds,69,100,8.37,VN,1626404346
Albany,42.6001,-73.9662,75.81,broken clouds,89,51,4.23,US,1626404407
Kodiak,57.79,-152.4072,63.09,scattered clouds,70,30,1.03,US,1626404409
Port Keats,-14.25,129.55,88.05,overcast clouds,27,100,8.03,AU,1626404411
New Norfolk,-42.7826,147.0587,52.92,broken clouds,93,83,4.12,AU,1626404412
Saint George,37.1041,-113.5841,93.94,clear sky,35,0,1.01,US,1626404409
Port Alfred,-33.5906,26.891,53.29,clear sky,43,0,6.22,ZA,1626404415
Quatre Cocos,-20.2078,57.7625,69.1,light rain,72,77,17.58,MU,1626404417
Hobart,-42.8794,147.3294,53.26,broken clouds,89,75,0.0,AU,1626404314
Mataura,-46.1927,168.8643,55.47,clear sky,82,3,3.89,NZ,1626404419
Gat,31.61,34.7642,79.39,clear sky,86,0,2.53,IL,1626404421
Hurghada,27.2574,33.8129,84.51,clear sky,40,4,9.57,EG,1626404417
Avarua,-21.2078,-159.775,78.85,broken clouds,78,75,9.22,CK,1626404423
Kapaa,22.0752,-159.319,84.18,scattered clouds,79,42,4.0,US,1626404425
Oliveira Dos Brejinhos,-12.3169,-42.8961,68.43,overcast clouds,55,85,4.68,BR,1626404426
Whitehorse,60.7161,-135.0538,65.01,broken clouds,36,82,8.99,CA,1626404428
Conde,-7.2597,-34.9075,70.66,clear sky,93,10,8.1,BR,1626404429
Yerbogachen,61.2767,108.0108,75.52,clear sky,49,0,0.85,RU,1626404430
Kahului,20.8947,-156.47,82.98,few clouds,74,21,4.0,US,1626404432
Mehamn,71.0357,27.8492,52.16,overcast clouds,81,100,5.5,NO,1626404433
Paracatu,-17.2222,-46.8747,62.51,clear sky,51,0,1.19,BR,1626404434
Cape Town,-33.9258,18.4232,50.11,clear sky,61,0,2.48,ZA,1626404436
Ushuaia,-54.8,-68.3,33.46,light snow,93,90,26.46,AR,1626404388
Barrow,71.2906,-156.7887,48.22,overcast clouds,76,90,13.8,US,1626404438
Alofi,-19.0595,-169.9187,76.5,clear sky,85,2,22.57,NU,1626404439
Hermanus,-34.4187,19.2345,49.89,clear sky,57,0,4.61,ZA,1626404441
Punta Arenas,-53.15,-70.9167,37.11,light rain,93,100,5.7,CL,1626404442
Genhe,50.7833,121.5167,80.38,clear sky,42,0,9.69,CN,1626404444
Airai,-8.9266,125.4092,75.0,broken clouds,40,58,4.54,TL,1626404445
Tiksi,71.6872,128.8694,52.52,overcast clouds,61,100,25.26,RU,1626404446
Rikitea,-23.1203,-134.9692,73.13,few clouds,73,20,9.46,PF,1626404448
Ayan,56.45,138.1667,58.93,overcast clouds,85,100,0.92,RU,1626404449
Lebu,-37.6167,-73.65,49.98,broken clouds,78,83,3.06,CL,1626404451
Sabang,5.8933,95.3214,81.57,overcast clouds,75,100,7.99,ID,1626404452
Coihaique,-45.5752,-72.0662,37.08,light rain,99,86,5.32,CL,1626404453
Borshchiv,48.8033,26.0435,70.14,broken clouds,78,67,3.27,UA,1626404455
Dingle,10.9995,122.6711,78.37,overcast clouds,88,100,5.97,PH,1626404456
Bethel,41.3712,-73.414,77.0,scattered clouds,87,45,3.78,US,1626404457
Nanyamba,-10.6833,39.8333,61.29,clear sky,92,5,5.61,TZ,1626404459
Hilo,19.7297,-155.09,90.28,clear sky,90,2,3.0,US,1626404460
Del Rio,29.3627,-100.8968,86.23,scattered clouds,52,28,5.01,US,1626404461
Bredasdorp,-34.5322,20.0403,46.06,clear sky,68,0,3.96,ZA,1626404463
Windhoek,-22.5594,17.0832,45.1,clear sky,21,0,5.79,NA,1626404464
El Puerto De Santa Maria,36.5939,-6.233,72.25,clear sky,63,0,6.91,ES,1626404465
Ystad,55.4297,13.8204,70.99,scattered clouds,87,42,4.99,SE,1626404467
Bambous Virieux,-20.3428,57.7575,69.22,light rain,73,84,17.85,MU,1626404468
Talnakh,69.4865,88.3972,60.31,overcast clouds,57,100,11.25,RU,1626404469
Butaritari,3.0707,172.7902,82.62,moderate rain,80,100,13.6,KI,1626404471
Piet Retief,-27.0071,30.8132,35.44,clear sky,96,3,3.53,ZA,1626404472
Rumphi,-11.0186,33.8575,55.2,scattered clouds,93,34,4.12,MW,1626404473
Montepuez,-13.1256,38.9997,61.47,clear sky,85,3,10.02,MZ,1626404474
Luohe,33.5717,114.0353,87.03,moderate rain,68,74,5.73,CN,1626404476
Provideniya,64.3833,-173.3,50.11,fog,81,90,15.66,RU,1626404477
Abu Samrah,35.3029,37.1841,76.01,clear sky,55,0,7.31,SY,1626404478
Pisco,-13.7,-76.2167,59.02,clear sky,88,0,3.04,PE,1626404480
Khasan,42.4308,130.6434,74.44,overcast clouds,94,97,5.03,RU,1626404481
Sur,22.5667,59.5289,84.0,overcast clouds,82,100,15.35,OM,1626404482
Straumen,63.8709,11.2999,57.51,broken clouds,89,55,7.78,NO,1626404483
Emporia,38.4039,-96.1817,69.51,broken clouds,98,75,5.73,US,1626404485
Saskylakh,71.9167,114.0833,52.29,light rain,77,100,8.59,RU,1626404486
Cravo Norte,6.3017,-70.2041,75.27,broken clouds,91,51,2.8,CO,1626404487
New York,40.7143,-74.006,82.94,broken clouds,79,54,1.01,US,1626404298
Severo-Kurilsk,50.6789,156.125,56.89,scattered clouds,77,43,17.52,RU,1626404490
Atuona,-9.8,-139.0333,78.17,few clouds,66,16,27.96,PF,1626404491
Garden City,42.3256,-83.331,75.45,clear sky,73,1,5.75,US,1626404493
Bluff,-46.6,168.3333,55.8,few clouds,84,14,4.79,NZ,1626404494
Cidreira,-30.1811,-50.2056,55.99,broken clouds,90,54,8.95,BR,1626404495
Stulovo,58.7225,50.1439,60.76,moderate rain,95,100,3.24,RU,1626404496
Kalmunai,7.4167,81.8167,83.93,broken clouds,71,74,2.21,LK,1626404498
Dedovichi,57.5517,29.9502,68.67,scattered clouds,78,33,4.16,RU,1626404499
Marsa Matruh,31.3525,27.2453,76.39,clear sky,75,0,10.18,EG,1626404500
Soyo,-6.1349,12.3689,70.81,scattered clouds,90,25,3.87,AO,1626404502
Busselton,-33.65,115.3333,60.04,overcast clouds,67,100,10.36,AU,1626404503
Salinas,36.6777,-121.6555,70.23,clear sky,79,6,6.13,US,1626404462
Griffith,41.5284,-87.4237,73.22,overcast clouds,87,90,1.01,US,1626404505
Husavik,66.0449,-17.3389,51.71,scattered clouds,86,38,2.71,IS,1626404234
Hithadhoo,-0.6,73.0833,83.75,broken clouds,72,76,13.29,MV,1626404508
Tasiilaq,65.6145,-37.6368,39.36,scattered clouds,81,29,9.78,GL,1626404509
Fairbanks,64.8378,-147.7164,80.02,scattered clouds,36,48,1.01,US,1626404410
Hasaki,35.7333,140.8333,88.29,overcast clouds,78,100,7.81,JP,1626404511
Saint-Philippe,-21.3585,55.7679,67.55,light rain,86,70,14.83,RE,1626404513
Mold,53.1667,-3.1414,58.8,clear sky,88,0,2.95,GB,1626404514
Fortuna,40.5982,-124.1573,64.42,overcast clouds,88,90,4.0,US,1626404515
Chokurdakh,70.6333,147.9167,63.82,overcast clouds,33,89,16.71,RU,1626404517
Wagar,16.1525,36.2032,78.4,overcast clouds,71,92,15.26,SD,1626404518
San Jeronimo,-11.9472,-75.2829,46.76,clear sky,77,5,2.55,PE,1626404519
Awbari,26.5921,12.7805,83.12,overcast clouds,23,94,7.67,LY,1626404520
Sicamous,50.8331,-118.9856,86.11,scattered clouds,45,29,1.61,CA,1626404522
Cuauhtemoc,28.4167,-106.8667,67.71,scattered clouds,44,25,11.88,MX,1626404523
Arlit,18.7369,7.3853,92.55,overcast clouds,11,100,15.39,NE,1626404524
Puerto Ayora,-0.7393,-90.3518,70.56,broken clouds,95,83,1.01,EC,1626404526
Thompson,55.7435,-97.8558,76.24,clear sky,43,8,9.69,CA,1626404527
Jaumave,23.4167,-99.3833,73.96,overcast clouds,93,94,3.96,MX,1626404528
Urumqi,43.801,87.6005,81.55,clear sky,30,0,4.47,CN,1626404530
Carnarvon,-24.8667,113.6333,63.84,overcast clouds,55,87,17.22,AU,1626404531
Marzuq,14.4,46.4667,81.1,overcast clouds,46,100,16.17,YE,1626404532
Victoria,22.2855,114.1577,88.97,few clouds,79,17,1.99,HK,1626404259
Porto Murtinho,-21.6989,-57.8825,63.37,overcast clouds,88,100,6.69,BR,1626404535
Baykit,61.67,96.37,70.59,overcast clouds,78,99,4.34,RU,1626404536
Agadir,30.4202,-9.5982,68.45,clear sky,70,0,3.11,MA,1626404537
Bengkulu,-3.8004,102.2655,82.51,broken clouds,63,83,3.69,ID,1626404539
Chickasha,35.0526,-97.9364,83.28,light rain,65,1,10.36,US,1626404412
Nanortalik,60.1432,-45.2371,45.25,overcast clouds,84,100,6.31,GL,1626404541
Mar Del Plata,-38.0023,-57.5575,45.12,clear sky,66,0,3.0,AR,1626404542
Stokmarknes,68.5646,14.9108,52.5,overcast clouds,92,100,29.39,NO,1626404544
Ahipara,-35.1667,173.1667,60.8,broken clouds,77,76,18.14,NZ,1626404545
Bitung,1.4451,125.1824,83.25,overcast clouds,79,100,2.01,ID,1626404546
La Rioja,42.25,-2.5,54.05,clear sky,64,1,6.49,ES,1626404548
Kavieng,-2.5744,150.7967,86.02,overcast clouds,69,91,10.76,PG,1626404549
Vaini,-21.2,-175.2,73.74,overcast clouds,84,97,24.87,TO,1626404550
Jamestown,42.097,-79.2353,70.72,scattered clouds,93,44,4.0,US,1626404415
Bathsheba,13.2167,-59.5167,80.47,broken clouds,74,73,18.61,BB,1626404553
Thinadhoo,0.5333,72.9333,82.9,overcast clouds,74,100,12.26,MV,1626404554
Ascension,30.2169,-90.9001,80.01,clear sky,93,1,0.0,US,1626404555
Deer Lake,49.1667,-57.4316,64.0,overcast clouds,84,99,6.6,CA,1626404556
Bonnyville,54.2668,-110.735,78.6,broken clouds,38,52,13.02,CA,1626404390
Lgov,51.6307,35.2775,66.25,few clouds,97,12,3.51,RU,1626404559
Abonnema,4.7084,6.7931,75.29,light rain,90,100,4.81,NG,1626404560
Grenfell,-33.9,148.1667,51.33,scattered clouds,76,34,20.94,AU,1626404561
Auki,-8.7676,160.7034,87.49,clear sky,61,7,4.97,SB,1626404563
Singaparna,-7.3515,108.111,77.43,scattered clouds,65,49,5.86,ID,1626404564
Necochea,-38.5473,-58.7368,41.94,clear sky,58,5,9.51,AR,1626404565
Leningradskiy,69.3833,178.4167,42.24,light rain,95,100,13.38,RU,1626404567
Mezen,65.8522,44.24,58.86,clear sky,72,6,3.02,RU,1626404568
Georgetown,5.4112,100.3354,87.73,few clouds,77,20,1.99,MY,1626404416
Tuktoyaktuk,69.4541,-133.0374,40.8,scattered clouds,74,40,9.13,CA,1626404570
Kungalv,57.871,11.9805,67.86,clear sky,95,0,4.34,SE,1626404572
Lamar,33.6668,-95.5836,82.56,broken clouds,83,81,10.16,US,1626404435
Bonga,7.2833,36.2333,59.65,light rain,99,100,2.13,ET,1626404574
Longyearbyen,78.2186,15.6401,53.44,broken clouds,66,75,2.3,SJ,1626404575
Korla,41.7597,86.1469,86.86,overcast clouds,26,95,8.3,CN,1626404576
Conselheiro Pena,-19.1722,-41.4722,67.39,clear sky,81,4,0.78,BR,1626404578
Nome,64.5011,-165.4064,54.16,overcast clouds,80,100,16.17,US,1626404579
Hami,42.8,93.45,89.56,clear sky,25,0,1.95,CN,1626404580
Zabol,32.25,67.25,78.71,clear sky,39,0,1.61,AF,1626404582
Port Elizabeth,-33.918,25.5701,50.11,clear sky,66,0,5.68,ZA,1626404417
Touros,-5.1989,-35.4608,74.62,clear sky,89,4,10.96,BR,1626404584
Wanaka,-44.7,169.15,47.1,overcast clouds,99,99,2.1,NZ,1626404375
Katsuura,35.1333,140.3,86.14,overcast clouds,74,86,7.83,JP,1626404586
Jian,27.1172,114.9793,93.34,broken clouds,53,70,5.82,CN,1626404588
Tilichiki,60.4667,166.1,59.11,overcast clouds,76,94,9.78,RU,1626404589
Ancud,-41.8697,-73.8203,46.22,light rain,82,82,10.69,CL,1626404590
La Ronge,55.1001,-105.2842,79.02,thunderstorm,50,90,4.61,CA,1626404592
Ryotsu,38.0833,138.4333,82.18,overcast clouds,68,100,2.98,JP,1626404593
Jibuti,11.5,42.5,83.88,light rain,41,100,10.13,DJ,1626404594
Anshun,26.25,105.9333,74.25,overcast clouds,78,95,13.24,CN,1626404595
Kisangani,0.5167,25.2,72.05,broken clouds,80,75,1.45,CD,1626404597
Kilindoni,-7.9139,39.6668,76.51,few clouds,72,14,22.37,TZ,1626404598
Karpathos,35.507,27.2132,76.73,clear sky,83,0,13.56,GR,1626404599
Riyadh,24.6877,46.7219,87.94,broken clouds,16,78,4.36,SA,1626404307
Flin Flon,54.7682,-101.865,73.44,scattered clouds,55,39,5.12,CA,1626404602
Qaqortoq,60.7167,-46.0333,52.3,overcast clouds,79,100,3.13,GL,1626404603
Vao,-22.6667,167.4833,72.84,scattered clouds,80,49,10.09,NC,1626404605
Neuquen,-38.9516,-68.0591,48.31,overcast clouds,42,100,3.44,AR,1626404426
Port Blair,11.6667,92.75,75.24,heavy intensity rain,100,90,2.3,IN,1626404607
Kangaba,11.9333,-8.4167,73.24,broken clouds,93,64,4.45,ML,1626404608
Torbay,47.6666,-52.7314,59.88,broken clouds,90,75,14.97,CA,1626404610
Ewa Beach,21.3156,-158.0072,83.98,scattered clouds,60,49,18.01,US,1626404611
Bonavista,48.6499,-53.1147,57.0,overcast clouds,85,97,16.91,CA,1626404612
Saldanha,-33.0117,17.9442,50.83,clear sky,56,0,6.26,ZA,1626404613
Omsukchan,62.5333,155.8,70.3,broken clouds,41,66,2.95,RU,1626404615
Khandbari,27.3747,87.2039,78.04,overcast clouds,75,96,2.3,NP,1626404616
Olafsvik,64.8945,-23.7142,49.68,overcast clouds,96,100,9.93,IS,1626404618
Beloha,-25.1667,45.05,63.19,light rain,88,94,14.65,MG,1626404619
Asyut,27.181,31.1837,81.55,few clouds,27,21,6.29,EG,1626404620
Yellowknife,62.456,-114.3525,46.33,overcast clouds,80,100,1.01,CA,1626404410
Omboue,-1.5746,9.2618,71.17,overcast clouds,80,100,6.49,GA,1626404623
Jizan,17.3333,42.6667,88.29,overcast clouds,60,98,5.08,SA,1626404624
Mahebourg,-20.4081,57.7,69.26,light rain,74,82,17.85,MU,1626404625
Praia Da Vitoria,38.7333,-27.0667,70.75,broken clouds,94,58,8.03,PT,1626404626
Hofn,64.2539,-15.2082,51.85,scattered clouds,92,31,12.86,IS,1626404628
Raglan,-37.8,174.8833,62.33,broken clouds,75,81,12.8,NZ,1626404629
Ambon,-3.6954,128.1814,87.94,scattered clouds,62,40,3.44,ID,1626404630
Khatanga,71.9667,102.5,49.06,light rain,90,100,10.0,RU,1626404632
Chaman,30.9236,66.4512,85.01,clear sky,36,9,1.95,PK,1626404633
Upernavik,72.7868,-56.1549,43.88,overcast clouds,76,100,7.31,GL,1626404634
Qaanaaq,77.484,-69.3632,36.41,overcast clouds,94,100,12.64,GL,1626404636
Zhigansk,66.7697,123.3711,63.52,clear sky,39,3,12.03,RU,1626404637
East London,-33.0153,27.9116,53.33,clear sky,35,0,5.26,ZA,1626404638
Hualmay,-11.0964,-77.6139,62.83,scattered clouds,83,31,10.27,PE,1626404639
Cartagena,10.3997,-75.5144,79.54,overcast clouds,86,96,17.31,CO,1626404641
Mwense,-10.3845,28.698,58.06,clear sky,75,2,5.35,ZM,1626404642
Rawson,-43.3002,-65.1023,46.74,overcast clouds,49,100,11.07,AR,1626404456
Diego De Almagro,-26.3667,-70.05,51.17,clear sky,46,0,1.5,CL,1626404644
Camacha,33.0833,-16.3333,67.53,broken clouds,77,75,12.66,PT,1626404646
Abu Dhabi,24.4667,54.3667,91.98,overcast clouds,64,100,15.82,AE,1626404463
Fort Thomas,39.0751,-84.4472,75.92,clear sky,88,1,6.91,US,1626404648
Ballina,-28.8667,153.5667,64.98,overcast clouds,77,85,14.79,AU,1626404649
Letpadan,17.7833,95.75,79.74,overcast clouds,84,100,4.54,MM,1626404651
Nikolskoye,59.7035,30.7861,72.79,few clouds,89,19,4.18,RU,1626404652
Pampa,35.5362,-100.9599,79.75,clear sky,73,1,3.44,US,1626404653
Homer,59.6425,-151.5483,74.08,overcast clouds,76,87,13.0,US,1626404436
Te Anau,-45.4167,167.7167,54.64,scattered clouds,82,30,2.15,NZ,1626404396
Kungurtug,50.5994,97.5228,75.78,scattered clouds,42,42,1.52,RU,1626404657
Huntsville,34.7304,-86.5861,79.39,clear sky,84,1,5.99,US,1626404460
Matiguas,12.8373,-85.4622,70.84,scattered clouds,96,25,3.4,NI,1626404659
Chapais,49.7834,-74.8492,55.18,overcast clouds,98,100,5.3,CA,1626404660
Lahaina,20.8783,-156.6825,84.2,scattered clouds,73,30,10.56,US,1626404662
Souillac,-20.5167,57.5167,69.37,light rain,78,80,16.11,MU,1626404663
Moron,-34.6534,-58.6198,51.91,clear sky,88,0,3.76,AR,1626404664
Boa Vista,2.8197,-60.6733,75.18,broken clouds,94,75,2.3,BR,1626404665
Castro,-24.7911,-50.0119,56.84,moderate rain,81,100,3.02,BR,1626404486
Itarema,-2.9248,-39.9167,76.42,overcast clouds,84,88,9.93,BR,1626404668
Kashi,39.4547,75.9797,80.22,clear sky,35,0,9.57,CN,1626404669
Prince Rupert,54.3161,-130.3201,57.29,light rain,88,90,9.22,CA,1626404670
Podgorica,42.4411,19.2636,71.38,clear sky,68,0,4.61,ME,1626404437
Hoquiam,46.9809,-123.8893,65.37,overcast clouds,60,90,12.66,US,1626404673
Lorengau,-2.0226,147.2712,84.4,light rain,77,84,11.86,PG,1626404674
Mirabad,30.4362,61.8383,89.83,clear sky,18,0,20.36,AF,1626404676
Naze,28.3667,129.4833,80.56,overcast clouds,68,97,14.36,JP,1626404677
Vestmannaeyjar,63.4427,-20.2734,51.39,overcast clouds,96,100,19.71,IS,1626404678
Saint-Joseph,-21.3667,55.6167,66.56,light rain,82,38,14.38,RE,1626404679
Faanui,-16.4833,-151.75,80.22,light rain,73,2,17.98,PF,1626404681
Ixtapa,20.7,-105.2,78.08,overcast clouds,93,100,1.99,MX,1626404682
Arraial Do Cabo,-22.9661,-42.0278,71.01,few clouds,85,22,16.02,BR,1626404683
Matara,5.9485,80.5353,82.26,broken clouds,77,64,10.25,LK,1626404399
Baley,51.6,116.6333,74.62,clear sky,50,0,7.38,RU,1626404686
Cockburn Town,21.4612,-71.1419,81.45,clear sky,74,0,19.66,TC,1626404687
Pedernales,18.0384,-71.744,79.52,clear sky,71,1,6.38,DO,1626404688
Athboy,53.6186,-6.9206,64.24,overcast clouds,88,100,4.0,IE,1626404690
Denpasar,-8.65,115.2167,82.06,few clouds,78,20,18.41,ID,1626404691
Faya,18.3851,42.4509,63.12,overcast clouds,37,93,6.06,SA,1626404692
Sakaiminato,35.55,133.2333,76.68,overcast clouds,76,100,7.9,JP,1626404693
Trelew,-43.249,-65.3051,46.09,overcast clouds,45,100,9.53,AR,1626404695
Luderitz,-26.6481,15.1594,56.75,clear sky,33,0,6.91,NA,1626404696
Balakovo,52.0278,47.8007,71.02,few clouds,66,12,1.74,RU,1626404697
Dhidhdhoo,6.8833,73.1,82.78,overcast clouds,79,99,14.07,MV,1626404699
Cayenne,4.9333,-52.3333,76.08,clear sky,90,0,0.0,GF,1626404662
Erzin,36.9559,36.2,79.52,clear sky,81,4,1.25,TR,1626404701
San Joaquin,37.9333,-121.3011,88.11,clear sky,41,1,14.97,US,1626404702
Tigre,-34.426,-58.5796,52.18,clear sky,89,0,0.0,AR,1626404707
Sapele,5.8941,5.6767,74.44,overcast clouds,94,100,2.39,NG,1626404708
Guilin,25.2819,110.2864,89.58,broken clouds,60,81,5.26,CN,1626404709
Lethem,3.3803,-59.7968,74.61,heavy intensity rain,92,99,4.81,GY,1626404711
Vanimo,-2.6741,141.3028,84.24,overcast clouds,68,100,5.73,PG,1626404712
Russell,32.3502,-85.1999,76.78,few clouds,89,17,2.62,US,1626404714
Gold Coast,-28.0,153.4333,71.01,light rain,82,96,4.0,AU,1626404715
Orhangazi,40.4892,29.3089,74.17,clear sky,76,0,4.83,TR,1626404716
Vilyuysk,63.7553,121.6247,69.91,scattered clouds,30,43,8.41,RU,1626404717
Gwadar,25.1216,62.3254,86.23,overcast clouds,78,100,13.69,PK,1626404719
Bukene,-4.2333,32.8833,62.74,scattered clouds,63,25,7.02,TZ,1626404720
Huangmei,30.1924,116.025,87.12,overcast clouds,71,100,5.3,CN,1626404722
Haines Junction,60.7522,-137.5108,65.86,overcast clouds,35,95,7.74,CA,1626404723
Ust-Nera,64.5667,143.2,75.54,overcast clouds,42,100,4.03,RU,1626404724
Iroquois Falls,48.7669,-80.6831,53.76,scattered clouds,95,49,3.29,CA,1626404726
Norman Wells,65.282,-126.8329,52.86,overcast clouds,39,87,5.88,CA,1626404727
Narsaq,60.9167,-46.05,52.02,overcast clouds,67,100,1.68,GL,1626404592
Ribeira Grande,38.5167,-28.7,69.58,scattered clouds,87,47,9.1,PT,1626404729
Ostrovnoy,68.0531,39.5131,56.61,overcast clouds,82,100,14.9,RU,1626404731
Vila Velha,-20.3297,-40.2925,73.35,clear sky,73,0,8.05,BR,1626404732
Darnah,32.767,22.6367,77.27,clear sky,89,0,20.78,LY,1626404581
Lavrentiya,65.5833,-171.0,53.89,scattered clouds,74,32,14.27,RU,1626404734
Poum,-20.2333,164.0167,74.89,overcast clouds,82,100,8.88,NC,1626404736
Estepona,36.4276,-5.1459,67.91,clear sky,77,0,9.69,ES,1626404737
Araouane,18.9048,-3.5265,93.47,scattered clouds,29,44,1.52,ML,1626404738
Esperance,-33.8667,121.9,55.24,broken clouds,74,57,24.87,AU,1626404740
Saint Anthony,45.0205,-93.218,72.75,clear sky,66,1,1.01,US,1626404741
Slobidka,47.8869,29.3461,67.17,few clouds,60,11,1.61,UA,1626404742
Cabo San Lucas,22.8909,-109.9124,88.9,clear sky,53,1,7.0,MX,1626404666
Hirara,24.8,125.2833,83.53,overcast clouds,75,100,14.07,JP,1626404745
Divnogorsk,55.9594,92.3619,63.09,moderate rain,94,100,2.37,RU,1626404746
Severobaykalsk,55.65,109.3167,60.48,broken clouds,79,62,2.66,RU,1626404747
Port Moresby,-9.4431,147.1797,83.48,clear sky,70,7,7.4,PG,1626404749
Chhapar,27.8167,74.4,93.76,broken clouds,45,79,14.99,IN,1626404750
Hambantota,6.1241,81.1185,80.94,few clouds,94,20,6.91,LK,1626404751
Kralendijk,12.15,-68.2667,80.58,few clouds,83,20,14.97,BQ,1626404752
Paranaiba,-19.6772,-51.1908,68.09,clear sky,39,9,7.07,BR,1626404708
Lagoa,39.05,-27.9833,68.65,clear sky,86,3,9.06,PT,1626404755
El Alto,-4.2714,-81.2147,63.59,clear sky,86,7,15.12,PE,1626404756
Mitsamiouli,-11.3847,43.2844,76.75,clear sky,64,1,12.46,KM,1626404757
Samarai,-10.6167,150.6667,81.9,clear sky,84,7,11.32,PG,1626404759
Cherskiy,68.75,161.3,55.54,few clouds,43,13,5.08,RU,1626404760
Jackson,42.4165,-122.8345,84.07,clear sky,30,1,10.36,US,1626404617
Okato,-39.2,173.8833,55.42,light rain,89,100,23.64,NZ,1626404762
Oussouye,12.485,-16.5469,79.43,overcast clouds,83,99,5.95,SN,1626404764
Zelenoborskiy,66.845,32.3622,58.87,overcast clouds,94,100,5.3,RU,1626404765
Ilulissat,69.2167,-51.1,44.62,scattered clouds,70,27,1.14,GL,1626404766
Bad Schwalbach,50.1333,8.0667,62.28,overcast clouds,95,100,3.58,DE,1626404768
Catemaco,18.4167,-95.1167,72.05,broken clouds,92,67,1.01,MX,1626404769
La Palma,33.8464,-118.0467,87.42,clear sky,73,1,3.0,US,1626404770
Urdoma,61.7533,48.5442,59.18,scattered clouds,85,46,4.94,RU,1626404772
Adrar,20.5022,-10.0711,87.91,clear sky,31,0,21.03,MR,1626404773
Watertown,42.3709,-71.1828,76.91,clear sky,87,1,1.01,US,1626404774
Oranjemund,-28.55,16.4333,56.46,clear sky,27,0,8.63,NA,1626404776
Iberia,29.9502,-91.7507,78.96,few clouds,94,20,3.44,US,1626404777
Flinders,-34.5833,150.8552,62.19,light rain,56,48,10.0,AU,1626404778
Progreso,21.2833,-89.6667,80.71,clear sky,86,4,14.36,MX,1626404693
Berdigestyakh,62.0989,126.6992,67.55,overcast clouds,39,100,11.43,RU,1626404781
Coahuayana,18.7333,-103.6833,78.87,overcast clouds,94,100,1.48,MX,1626404782
Charters Towers,-20.1,146.2667,87.33,few clouds,33,15,15.01,AU,1626404783
Berlevag,70.8578,29.0864,51.8,overcast clouds,84,100,9.13,NO,1626404785
San Quintin,30.4833,-115.95,68.34,few clouds,83,18,11.61,MX,1626404786
Beidao,34.5686,105.8933,75.18,overcast clouds,75,90,0.96,CN,1626404787
Teseney,15.11,36.6575,75.09,overcast clouds,73,100,10.69,ER,1626404788
Namibe,-15.1961,12.1522,67.26,clear sky,69,0,4.32,AO,1626404774
Cuenca,-2.8833,-78.9833,54.32,broken clouds,93,78,2.84,EC,1626404491
Bafq,31.6128,55.4107,84.0,broken clouds,33,68,10.0,IR,1626404792
Vestmanna,62.1564,-7.1664,50.92,overcast clouds,100,90,14.97,FO,1626404793
Waingapu,-9.6567,120.2641,84.81,scattered clouds,52,30,11.56,ID,1626404795
Kandrian,-6.2167,149.55,83.89,light rain,76,100,12.64,PG,1626404796
Cape Canaveral,28.4058,-80.6048,83.07,few clouds,82,20,4.61,US,1626404797
Kruisfontein,-34.0033,24.7314,45.5,clear sky,51,0,4.92,ZA,1626404799
Owo,7.1962,5.5868,70.43,overcast clouds,99,100,2.21,NG,1626404800
Doka,13.5167,35.7667,73.45,overcast clouds,80,100,10.63,SD,1626404801
Bonthe,7.5264,-12.505,74.71,moderate rain,91,99,1.1,SL,1626404802
Umm Lajj,25.0213,37.2685,83.01,overcast clouds,55,99,4.09,SA,1626404804
Tomatlan,19.9333,-105.25,78.67,overcast clouds,90,100,1.14,MX,1626404805
Klaksvik,62.2266,-6.589,52.72,broken clouds,88,67,18.66,FO,1626404806
Liverpool,53.4106,-2.9779,59.83,clear sky,78,0,1.99,GB,1626404693
Mehran,33.1222,46.1646,93.65,clear sky,13,0,6.64,IR,1626404809
Cabrobo,-8.5142,-39.31,69.62,clear sky,85,5,14.85,BR,1626404810
Mantua,45.1667,10.7833,69.71,overcast clouds,84,100,4.85,IT,1626404811
Bilari,28.6333,78.8,88.34,broken clouds,62,69,8.12,IN,1626404813
Casablanca,33.5928,-7.6192,73.33,clear sky,83,2,11.01,MA,1626404567
Port Hardy,50.6996,-127.4199,59.52,broken clouds,84,69,8.08,CA,1626404815
Luebo,-5.35,21.4167,66.7,scattered clouds,38,42,2.37,CD,1626404816
Harper,4.375,-7.7169,76.78,overcast clouds,79,100,8.72,LR,1626404818
Barasat,22.7167,88.5167,89.55,haze,74,40,6.91,IN,1626404819
Ongandjera,-17.8833,15.0667,54.9,clear sky,27,2,9.86,NA,1626404820
Mazagao,-0.115,-51.2894,77.05,overcast clouds,97,88,4.18,BR,1626404822
Jalu,29.0331,21.5482,78.69,clear sky,56,2,9.89,LY,1626404823
Baghdad,33.3406,44.4009,82.31,smoke,36,0,6.91,IQ,1626404824
Bubaque,11.2833,-15.8333,79.59,light rain,83,100,11.16,GW,1626404825
Vardo,70.3705,31.1107,53.8,overcast clouds,83,100,19.64,NO,1626404827
Mangrol,21.1167,70.1167,83.82,broken clouds,79,70,2.68,IN,1626404828
Khandagayty,50.7333,92.05,73.72,scattered clouds,45,32,3.8,RU,1626404829
Geraldton,-28.7667,114.6,62.13,overcast clouds,77,90,9.22,AU,1626404831
Bandarbeyla,9.4942,50.8122,81.14,overcast clouds,61,100,29.57,SO,1626404832
Gamba,-2.65,10.0,69.98,broken clouds,82,84,5.26,GA,1626404833
Boyuibe,-20.4167,-63.2833,56.84,overcast clouds,70,100,3.67,BO,1626404835
Ponta Do Sol,32.6667,-17.1,71.01,clear sky,79,2,2.95,PT,1626404836
Mecca,21.4267,39.8261,84.31,clear sky,24,7,3.38,SA,1626404837
Ormara,25.2088,64.6357,85.3,overcast clouds,84,92,9.86,PK,1626404839
Ochamchira,42.7121,41.4721,70.83,clear sky,78,0,3.02,GE,1626404840
Havoysund,70.9963,24.6622,54.48,broken clouds,77,74,11.63,NO,1626404841
Cap Malheureux,-19.9842,57.6142,69.48,light rain,79,37,8.01,MU,1626404842
Saint-Augustin,51.226,-58.6502,59.38,overcast clouds,96,99,13.27,CA,1626404844
Sterling,39.0062,-77.4286,84.25,scattered clouds,77,40,3.0,US,1626404781
Babushkin,51.7122,105.8647,65.71,overcast clouds,80,99,2.75,RU,1626404846
Christchurch,-43.5333,172.6333,63.32,broken clouds,53,75,1.99,NZ,1626404847
Pokaran,26.9167,71.9167,94.24,scattered clouds,49,44,9.01,IN,1626404849
Peniche,39.3558,-9.3811,76.48,clear sky,81,0,2.37,PT,1626404850
Champerico,14.3,-91.9167,81.72,broken clouds,76,52,4.34,GT,1626404851
Machiques,10.0644,-72.545,78.12,overcast clouds,78,100,8.23,VE,1626404853
Hamilton,39.1834,-84.5333,76.12,clear sky,87,1,6.91,US,1626404717
Bilma,18.6853,12.9164,91.18,scattered clouds,15,49,18.52,NE,1626404855
Terrace,54.5163,-128.6035,59.43,overcast clouds,67,99,2.51,CA,1626404856
Tevriz,57.509,72.4042,50.4,overcast clouds,96,100,3.4,RU,1626404858
Springfield,37.2153,-93.2982,75.97,overcast clouds,85,90,5.01,US,1626404859
Belo Oriente,-19.22,-42.4836,63.57,clear sky,75,0,2.95,BR,1626404860
Tevaitoa,-16.7833,-151.5,79.66,light rain,76,25,18.32,PF,1626404861
Nhulunbuy,-12.2333,136.7667,86.61,broken clouds,58,75,17.27,AU,1626404863
Nerchinskiy Zavod,51.3088,119.61,75.67,clear sky,60,1,7.52,RU,1626404864
Bajil,15.0584,43.2851,85.82,overcast clouds,55,100,4.43,YE,1626404865
Warrington,53.3925,-2.5802,61.48,clear sky,92,0,2.95,GB,1626404627
Itupiranga,-5.1347,-49.3267,75.83,scattered clouds,58,36,0.89,BR,1626404868
Pochutla,15.7432,-96.4661,74.8,overcast clouds,90,100,3.71,MX,1626404869
Marystown,47.1666,-55.1483,54.59,broken clouds,93,79,6.78,CA,1626404870
Great Bend,38.3645,-98.7648,77.97,clear sky,87,1,1.01,US,1626404872
Chuy,-33.6971,-53.4616,47.17,clear sky,94,0,5.41,UY,1626404873
Verkh-Usugli,52.7,115.1667,76.55,clear sky,44,0,4.68,RU,1626404874
Karratha,-20.7377,116.8463,72.68,clear sky,28,6,21.39,AU,1626404875
Avera,33.194,-82.5271,78.67,scattered clouds,68,46,5.99,US,1626404877
Puro,12.4841,123.3827,82.06,moderate rain,82,100,15.5,PH,1626404878
Port Said,31.2565,32.2841,80.83,clear sky,80,0,12.66,EG,1626404879
Bardsir,29.9227,56.5743,79.57,scattered clouds,33,44,3.49,IR,1626404881
Paamiut,61.994,-49.6678,42.33,overcast clouds,93,100,6.91,GL,1626404592
Maturin,9.75,-63.1767,74.21,broken clouds,96,84,5.37,VE,1626404883
Pacific Grove,36.6177,-121.9166,69.15,overcast clouds,88,90,5.01,US,1626404884
Coquimbo,-29.9533,-71.3436,47.93,clear sky,93,0,5.75,CL,1626404886
El Tigre,8.8875,-64.2454,75.74,broken clouds,80,73,9.1,VE,1626404887
Springbok,-29.6643,17.8865,41.45,clear sky,23,0,9.13,ZA,1626404888
Kazanskoye,55.6448,69.235,51.58,overcast clouds,98,100,10.92,RU,1626404890
Sao Jose Da Coroa Grande,-8.8978,-35.1478,74.1,scattered clouds,90,38,9.15,BR,1626404891
San Cristobal,7.7669,-72.225,75.38,broken clouds,97,66,3.06,VE,1626404892
Portland,45.5234,-122.6762,77.72,clear sky,51,1,3.0,US,1626404669
Minab,27.1467,57.0801,90.9,overcast clouds,48,100,7.09,IR,1626404895
Sitka,57.0531,-135.33,57.09,light rain,88,90,0.0,US,1626404896
Lompoc,34.6391,-120.4579,68.14,overcast clouds,82,90,9.22,US,1626404897
Marsala,37.7966,12.4352,71.92,few clouds,66,21,10.04,IT,1626404899
Kang,-23.6752,22.7876,46.09,scattered clouds,89,41,7.43,BW,1626404900
Clyde River,70.4692,-68.5914,47.25,overcast clouds,65,100,10.94,CA,1626404901
Lodja,-3.4833,23.4333,70.0,overcast clouds,41,88,2.3,CD,1626404903
Havre-Saint-Pierre,50.2334,-63.5986,58.35,overcast clouds,96,98,0.58,CA,1626404904
Diyarb Najm,30.7542,31.4393,78.58,clear sky,89,0,5.99,EG,1626404905
Kamaishi,39.2667,141.8833,79.92,few clouds,76,23,6.51,JP,1626404906
Kavaratti,10.5669,72.642,82.78,overcast clouds,81,100,21.94,IN,1626404908
Dzaoudzi,-12.7887,45.2699,76.89,few clouds,69,20,18.41,YT,1626404665
Santa Cruz,-17.8,-63.1667,58.46,overcast clouds,100,90,16.11,BO,1626404748
Taft,31.7471,54.2088,78.19,clear sky,39,3,7.78,IR,1626404911
Pangkalanbuun,-2.6833,111.6167,84.51,light rain,63,94,5.46,ID,1626404912
Terre Haute,39.4667,-87.4139,73.22,broken clouds,93,75,4.61,US,1626404914
Comodoro Rivadavia,-45.8667,-67.5,47.53,clear sky,49,0,28.36,AR,1626404916
Saint-Pierre,-21.3393,55.4781,67.64,light rain,69,40,5.75,RE,1626404917
Namatanai,-3.6667,152.4333,85.64,overcast clouds,70,93,10.96,PG,1626404919
Guerrero Negro,27.9769,-114.0611,69.46,clear sky,82,1,17.69,MX,1626404920
Kafanchan,9.5833,8.3,68.68,overcast clouds,99,100,2.08,NG,1626404922
Powell River,49.8496,-124.5361,68.32,few clouds,71,24,6.2,CA,1626404923
Bara,10.3744,10.7288,73.02,overcast clouds,91,100,8.52,NG,1626404924
Talcahuano,-36.7167,-73.1167,44.28,overcast clouds,93,100,0.0,CL,1626404926
Umea,63.8284,20.2597,54.91,broken clouds,87,54,3.44,SE,1626404927
Sesheke,-17.4759,24.2968,54.1,scattered clouds,86,25,5.1,ZM,1626404928
Ternate,0.8,127.4,83.07,broken clouds,73,73,4.61,ID,1626404929
Wewak,-3.5534,143.6268,86.34,light rain,69,100,3.65,PG,1626404931
Sao Filipe,14.8961,-24.4956,73.58,clear sky,83,7,7.47,CV,1626404932
Yelizovo,53.1873,158.3805,80.74,broken clouds,39,75,8.95,RU,1626404933
Puerto Escondido,15.85,-97.0667,79.93,overcast clouds,81,100,3.31,MX,1626404935
Jiayuguan,39.8167,98.3,80.47,clear sky,29,0,4.85,CN,1626404699
Alice Springs,-23.7,133.8833,60.35,broken clouds,25,59,14.97,AU,1626404937
Acucena,-19.0731,-42.5464,61.45,clear sky,76,0,2.93,BR,1626404938
Aitape,-3.1374,142.3475,84.69,overcast clouds,71,99,4.99,PG,1626404940
Alihe,50.5667,123.7167,85.39,clear sky,38,0,9.82,CN,1626404707
Acapulco,16.8634,-99.8901,78.3,overcast clouds,87,96,2.95,MX,1626404942
Kirakira,-10.4544,161.9205,84.87,scattered clouds,71,40,13.73,SB,1626404943
Izhmorskiy,56.194,86.6414,60.94,clear sky,62,7,13.62,RU,1626404945
Codrington,-38.2667,141.9667,55.29,overcast clouds,78,100,16.26,AU,1626404946
Deep River,46.1001,-77.4995,71.35,overcast clouds,98,100,6.49,CA,1626404757
Tual,-5.6667,132.75,80.82,overcast clouds,81,99,16.11,ID,1626404948
Barra Do Garcas,-15.89,-52.2567,67.05,clear sky,42,3,0.87,BR,1626404950
Hobyo,5.3505,48.5268,76.78,overcast clouds,78,99,26.35,SO,1626404951
Tuatapere,-46.1333,167.6833,55.81,clear sky,82,10,4.5,NZ,1626404952
Bayir,37.2687,28.2167,70.63,clear sky,34,0,3.49,TR,1626404954
Vila Franca Do Campo,37.7167,-25.4333,66.61,overcast clouds,76,91,2.95,PT,1626404955
Matagami,49.7502,-77.6328,50.52,overcast clouds,95,100,1.45,CA,1626404956
Pevek,69.7008,170.3133,34.21,light rain,95,100,11.45,RU,1626404957
Buarcos,40.166,-8.8768,69.57,clear sky,74,2,2.66,PT,1626404959
Mount Isa,-20.7333,139.5,76.77,clear sky,20,2,17.27,AU,1626404960
Umm Kaddadah,13.6017,26.6876,83.14,broken clouds,54,60,13.35,SD,1626404962
General Roca,-39.0333,-67.5833,41.4,overcast clouds,43,100,2.8,AR,1626404963
Abha,18.2164,42.5053,62.85,clear sky,59,0,0.0,SA,1626404964
Constitucion,-35.3333,-72.4167,49.64,broken clouds,80,71,6.93,CL,1626404965
Orsha,54.5153,30.4053,68.85,scattered clouds,84,31,4.92,BY,1626404825
Trinidad,-14.8333,-64.9,76.24,broken clouds,61,51,7.85,BO,1626404968
Tiznit,29.5833,-9.5,77.11,clear sky,33,3,1.66,MA,1626404969
Saint-Jean-De-Maurienne,45.1667,6.5833,40.24,overcast clouds,98,100,6.35,FR,1626404970
Margate,51.3813,1.3862,58.69,broken clouds,75,57,5.01,GB,1626404712
Gizo,-8.103,156.8419,84.42,broken clouds,75,66,12.82,SB,1626404973
Rincon,32.296,-81.2354,81.86,broken clouds,87,75,5.75,US,1626404974
Emet,39.343,29.2585,63.27,clear sky,70,0,3.78,TR,1626404975
Tura,25.5198,90.2201,80.44,broken clouds,88,74,3.83,IN,1626404977
San Gabriel,34.0961,-118.1058,88.34,clear sky,65,1,1.01,US,1626404978
Porto Novo,6.4965,2.6036,75.43,overcast clouds,89,100,7.74,BJ,1626404979
Mayo,38.8876,-76.5119,85.12,scattered clouds,86,40,4.61,US,1626404943
Mizan Teferi,6.9833,35.5833,59.63,overcast clouds,92,100,3.13,ET,1626404982
Hazorasp,41.3194,61.0742,75.04,clear sky,20,0,5.73,UZ,1626404983
Olinda,-8.0089,-34.8553,71.33,broken clouds,88,75,3.44,BR,1626404983
Lasa,46.6166,10.7002,52.63,overcast clouds,93,100,4.0,IT,1626404985
Udimskiy,61.1417,45.9144,60.93,scattered clouds,96,31,6.2,RU,1626404987
Lamu,-2.2717,40.902,75.42,light rain,79,94,15.68,KE,1626404988
Rawlins,41.7911,-107.2387,71.82,clear sky,30,1,14.97,US,1626404720
Pouebo,-20.4,164.5667,79.54,overcast clouds,65,88,6.22,NC,1626404990
Neka,36.6508,53.299,75.36,overcast clouds,80,100,3.67,IR,1626404992
Yumen,40.2833,97.2,80.24,clear sky,32,0,8.99,CN,1626404993
Sorland,67.667,12.6934,52.56,overcast clouds,86,100,31.65,NO,1626404994
Misratah,32.3754,15.0925,78.12,clear sky,78,0,6.85,LY,1626404995
Cascais,38.6979,-9.4215,76.35,clear sky,73,0,1.99,PT,1626404997
Mildura,-34.2,142.15,57.07,broken clouds,68,72,29.24,AU,1626404998
Aldan,58.6031,125.3894,56.14,light rain,96,100,2.91,RU,1626404999
Pavlogradka,54.2024,73.5592,52.29,overcast clouds,76,92,12.26,RU,1626405001
Udachnyy,66.4167,112.4,68.43,broken clouds,34,70,14.52,RU,1626405002
Dimitrovgrad,54.2139,49.6184,70.41,clear sky,78,7,3.31,RU,1626405005
Mahibadhoo,3.7833,72.9667,83.05,overcast clouds,74,100,8.81,MV,1626405006
Hailar,49.2,119.7,80.29,broken clouds,50,59,8.3,CN,1626405007
Zhigalovo,54.8097,105.1578,82.06,clear sky,43,4,1.99,RU,1626405009
Shanghai,31.2222,121.4581,87.87,few clouds,71,20,13.42,CN,1626404910
Smithers,54.7804,-127.1743,65.21,overcast clouds,57,99,3.89,CA,1626405011
Sao Gabriel Da Cachoeira,-0.1303,-67.0892,72.21,broken clouds,98,83,0.6,BR,1626405012
Port Lincoln,-34.7333,135.8667,56.37,light rain,78,15,31.36,AU,1626405013
Sanghar,26.0466,68.9481,87.87,overcast clouds,60,100,5.68,PK,1626404895
Sao Miguel Do Araguaia,-13.275,-50.1628,72.37,clear sky,39,5,3.78,BR,1626405016
Studenka,49.7234,18.0785,67.05,clear sky,97,0,5.99,CZ,1626405017
Piranhas,-16.4269,-51.8222,67.64,clear sky,40,3,2.93,BR,1626405019
Townsville,-19.25,146.8,81.48,few clouds,61,20,11.5,AU,1626405020
Guarapari,-20.6667,-40.4975,73.29,clear sky,80,0,8.63,BR,1626405021
Uige,-7.6087,15.0613,60.85,few clouds,81,20,1.95,AO,1626404839
Pasni,25.2631,63.471,84.51,light rain,83,100,10.85,PK,1626405024
Santa Fe,-31.6333,-60.7,50.02,clear sky,80,0,1.99,AR,1626404829
Punta Alta,-38.8759,-62.0736,46.69,overcast clouds,51,92,10.29,AR,1626405026
Tala,30.6803,30.9429,72.57,clear sky,91,0,6.04,EG,1626405027
Blagoyevo,63.3667,47.9167,58.71,overcast clouds,83,90,6.91,RU,1626405029
Staryy Nadym,65.6118,72.6842,56.08,overcast clouds,55,100,11.36,RU,1626405030
Puerto Colombia,10.9878,-74.9547,80.69,overcast clouds,86,91,22.91,CO,1626405031
Shestakovo,56.4915,103.96,84.04,scattered clouds,36,36,3.42,RU,1626405033
College,64.8569,-147.8028,80.01,broken clouds,32,75,11.5,US,1626405000
Plettenberg Bay,-34.0527,23.3716,52.93,clear sky,43,0,4.59,ZA,1626405035
Erenhot,43.6475,111.9767,89.76,overcast clouds,30,87,15.68,CN,1626405036
Atambua,-9.1061,124.8925,84.49,broken clouds,45,64,0.25,ID,1626405015
Izmir,38.4622,27.0923,80.11,clear sky,68,0,0.0,TR,1626405039
Manjacaze,-24.7117,33.8828,55.18,clear sky,76,0,3.89,MZ,1626405040
Sinnamary,5.3833,-52.95,76.03,scattered clouds,88,44,6.11,GF,1626405041
Cacak,43.8914,20.3497,73.9,clear sky,94,6,2.59,RS,1626405043
Takoradi,4.8845,-1.7554,74.64,light rain,92,95,7.09,GH,1626405044
Nyurba,63.2842,118.3319,70.18,few clouds,34,15,4.34,RU,1626405045
Yelan-Kolenovskiy,51.1632,41.151,69.4,light rain,77,100,6.64,RU,1626405047
Juelsminde,55.7088,10.0167,60.91,clear sky,81,0,5.88,DK,1626405048
Vung Tau,10.346,107.0843,79.12,overcast clouds,83,100,9.37,VN,1626404966
Palauig,15.435,119.9045,85.33,scattered clouds,72,42,6.51,PH,1626405050
Bac Lieu,9.285,105.7244,82.22,overcast clouds,73,100,3.51,VN,1626405052
Caravelas,-17.7125,-39.2481,68.54,clear sky,94,0,4.18,BR,1626404854
Labuan,5.2767,115.2417,86.16,overcast clouds,65,97,5.32,MY,1626405054
Barcelos,41.5388,-8.6151,73.85,clear sky,40,6,7.02,PT,1626405055
Marabba,12.35,32.1833,77.16,overcast clouds,73,100,10.63,SD,1626405057
Sao Joao Da Barra,-21.6403,-41.0511,70.65,scattered clouds,91,47,10.98,BR,1626405058
San Pedro Del Pinatar,37.8357,-0.791,72.36,clear sky,75,8,3.0,ES,1626405059
Daru,-9.0763,143.2092,81.55,overcast clouds,83,100,10.63,PG,1626405060
Black River,18.0264,-77.8487,75.97,clear sky,82,9,5.21,JM,1626405062
Garissa,-0.4536,39.6401,71.47,few clouds,80,21,14.67,KE,1626405063
Laguna,38.421,-121.4238,91.24,clear sky,47,1,5.01,US,1626405064
Pandan,14.0453,124.1694,86.07,overcast clouds,67,98,4.43,PH,1626405066
Puerto Penasco,31.3167,-113.5333,85.91,clear sky,78,7,5.01,MX,1626404839
Filingue,14.3521,3.3168,83.59,overcast clouds,50,100,16.24,NE,1626405068
Okha,53.5739,142.9478,73.76,overcast clouds,75,100,12.64,RU,1626405069
Balakhninskiy,58.0106,114.2769,75.52,overcast clouds,62,98,2.82,RU,1626405071
Platteville,42.7342,-90.4785,68.61,clear sky,100,1,0.0,US,1626405072
Antsohihy,-14.8796,47.9875,68.79,scattered clouds,62,27,9.31,MG,1626405073
Sarangani,5.4033,125.4636,81.21,overcast clouds,79,100,14.05,PH,1626405074
Emerald,-23.5333,148.1667,86.14,scattered clouds,45,40,19.57,AU,1626405076
Galesong,-5.3166,119.3661,82.42,overcast clouds,72,100,1.52,ID,1626405077
Castries,13.9957,-61.0061,80.67,broken clouds,78,77,15.19,LC,1626405078
Buala,-8.145,159.5921,86.0,few clouds,66,17,10.69,SB,1626405080
Matiri,-10.75,34.9,52.45,scattered clouds,83,37,4.59,TZ,1626405081
Bontang,0.1333,117.5,73.02,moderate rain,94,100,6.24,ID,1626405082
Alta Floresta,-9.8756,-56.0861,71.26,clear sky,45,0,3.47,BR,1626405083
Black Forest,39.0131,-104.7008,69.76,clear sky,67,1,1.01,US,1626405085
Kawalu,-7.3817,108.2082,78.04,scattered clouds,67,49,5.55,ID,1626405086
Orbottyan,47.6871,19.2824,68.0,scattered clouds,60,49,3.22,HU,1626405087
Chimbote,-9.0853,-78.5783,63.32,clear sky,86,9,9.28,PE,1626405089
Lukow,51.929,22.3796,68.5,overcast clouds,97,99,10.47,PL,1626405090
Nadym,65.5333,72.5167,55.15,overcast clouds,57,100,11.18,RU,1626405091
San Policarpo,12.1791,125.5072,86.83,moderate rain,68,100,7.81,PH,1626405093
Beringovskiy,63.05,179.3167,53.92,clear sky,73,0,17.65,RU,1626405094
Hays,30.0502,-98.0336,83.28,broken clouds,78,63,7.0,US,1626405095
Funadhoo,6.15,73.2667,83.05,overcast clouds,77,100,12.03,MV,1626405096
Atar,20.5169,-13.0499,80.35,clear sky,58,0,9.73,MR,1626405098
Warrnambool,-38.3833,142.4833,56.8,overcast clouds,80,97,16.24,AU,1626404991
Bielsk Podlaski,52.7651,23.1865,67.24,overcast clouds,95,88,6.71,PL,1626405100
Kingston,17.997,-76.7936,80.2,clear sky,92,8,1.01,JM,1626404861
Razdolinsk,58.4211,94.6658,72.91,scattered clouds,59,50,5.01,RU,1626405103
Santa Vitoria,-18.8386,-50.1214,69.46,clear sky,38,1,4.56,BR,1626405104
Richards Bay,-28.783,32.0377,54.48,clear sky,85,2,5.57,ZA,1626405105
Epe,6.5841,3.9834,74.28,light rain,96,100,3.76,NG,1626405106
Nuuk,64.1835,-51.7216,50.61,scattered clouds,81,34,1.14,GL,1626405108
Bandundu,-3.3167,17.3667,71.31,overcast clouds,51,98,4.32,CD,1626405109
Purranque,-40.9167,-73.1667,43.93,scattered clouds,98,39,1.9,CL,1626404900
Lazaro Cardenas,17.9583,-102.2,80.4,overcast clouds,84,100,2.01,MX,1626405111
Fort Nelson,58.8053,-122.7002,53.65,broken clouds,51,84,8.1,CA,1626405113
Zhezkazgan,47.8043,67.7144,71.38,broken clouds,23,71,11.07,KZ,1626405114
Rodrigues Alves,-7.738,-72.6509,72.84,clear sky,86,0,2.75,BR,1626405115
Nelson Bay,-32.7167,152.15,67.75,clear sky,65,3,3.0,AU,1626405117
Shizilu,35.1711,118.8289,77.54,heavy intensity rain,96,100,12.48,CN,1626405118
Tolaga Bay,-38.3667,178.3,59.25,scattered clouds,66,44,11.99,NZ,1626405119
Evensk,61.95,159.2333,62.47,scattered clouds,80,50,8.84,RU,1626405120
Safaga,26.7292,33.9365,86.32,clear sky,38,7,3.0,EG,1626405122
Marfino,55.7028,37.3822,69.87,clear sky,100,0,4.47,RU,1626405123
San Patricio,28.017,-97.5169,84.09,overcast clouds,80,93,14.38,US,1626405124
Kattivakkam,13.2167,80.3167,86.09,overcast clouds,78,100,9.66,IN,1626405126
Novikovo,51.1537,37.8879,68.18,light rain,90,81,3.0,RU,1626405127
Rockport,28.0206,-97.0544,85.01,few clouds,81,20,3.0,US,1626404856
